city,country,latitude,longitude,temp_max_F,humid,cloud,wind_mph,date_accessed
falmouth,GB,50.1544,-5.0711,83.3,85,0,3.0,21-07-2021
bezhanitsy,RU,56.9767,29.8907,67.15,45,94,8.72,21-07-2021
hami,CN,42.8,93.45,91.8,19,95,2.75,21-07-2021
chokurdakh,RU,70.6333,147.9167,44.78,78,42,6.69,21-07-2021
alyangula,AU,-13.8483,136.4192,68.43,71,16,9.06,21-07-2021
saint-denis,FR,48.9167,2.3333,84.85,48,0,11.5,21-07-2021
palmas,BR,-10.2128,-48.3603,85.87,32,0,13.8,21-07-2021
twentynine palms,US,34.1356,-116.0542,88.07,20,100,1.99,21-07-2021
paamiut,GL,61.994,-49.6678,42.15,96,100,6.35,21-07-2021
salihorsk,BY,52.7876,27.5415,75.2,45,48,13.87,21-07-2021
ous,RU,60.9058,61.5186,71.85,63,13,8.48,21-07-2021
vanavara,RU,60.34,102.2797,64.33,66,88,3.22,21-07-2021
katangli,RU,51.7102,143.2326,57.31,94,63,7.31,21-07-2021
port hardy,CA,50.6996,-127.4199,50.72,89,63,4.81,21-07-2021
ossora,RU,59.2353,163.0719,55.96,89,68,3.04,21-07-2021
redmond,US,47.674,-122.1215,59.92,77,96,3.0,21-07-2021
mar del plata,AR,-38.0023,-57.5575,55.09,65,0,1.99,21-07-2021
pareora,NZ,-44.4871,171.2132,44.19,92,100,6.76,21-07-2021
broken hill,AU,-31.95,141.4333,44.29,55,100,8.37,21-07-2021
holme,DK,56.1138,10.1725,66.29,46,4,5.12,21-07-2021
khatanga,RU,71.9667,102.5,55.87,88,100,7.67,21-07-2021
puerto carreno,CO,6.189,-67.4859,76.32,88,100,3.8,21-07-2021
boueni,YT,-12.9025,45.0761,82.38,70,18,9.73,21-07-2021
lasa,IT,46.6166,10.7002,84.11,31,1,0.78,21-07-2021
hoquiam,US,46.9809,-123.8893,55.92,65,1,3.44,21-07-2021
keti bandar,PK,24.1447,67.4497,85.05,79,62,23.2,21-07-2021
aranos,NA,-24.1333,19.1167,58.48,32,0,9.17,21-07-2021
college,US,64.8569,-147.8028,61.59,76,100,1.99,21-07-2021
kieta,PG,-6.2167,155.6333,78.75,86,62,6.67,21-07-2021
newport,GB,51.5877,-2.9984,85.17,66,0,2.1,21-07-2021
inuvik,CA,68.3499,-133.7218,67.75,62,6,7.09,21-07-2021
cabo san lucas,MX,22.8909,-109.9124,83.8,69,92,8.5,21-07-2021
naze,JP,28.3667,129.4833,77.63,91,100,27.36,21-07-2021
helong,CN,42.5397,128.9972,73.04,84,100,2.66,21-07-2021
luwingu,ZM,-10.2621,29.9271,84.4,16,0,3.85,21-07-2021
laguna,US,38.421,-121.4238,71.2,72,1,1.99,21-07-2021
salinopolis,BR,-0.6136,-47.3561,82.62,74,73,12.08,21-07-2021
poum,NC,-20.2333,164.0167,71.17,67,23,10.89,21-07-2021
lincoln,US,40.8,-96.667,72.12,86,100,3.0,21-07-2021
nhamunda,BR,-2.1861,-56.7131,83.35,69,0,3.09,21-07-2021
zhuhai,CN,22.2769,113.5678,84.06,89,20,12.66,21-07-2021
surt,LY,31.2089,16.5887,82.27,61,0,11.05,21-07-2021
camalu,MX,30.85,-116.0667,68.13,90,100,4.79,21-07-2021
ust-nera,RU,64.5667,143.2,62.56,92,100,5.61,21-07-2021
juba,SS,4.8517,31.5825,90.0,40,100,3.69,21-07-2021
faya,SA,18.3851,42.4509,66.67,79,75,11.36,21-07-2021
biak,ID,-0.9131,122.8766,75.06,90,100,7.7,21-07-2021
faanui,PF,-16.4833,-151.75,78.94,77,18,20.42,21-07-2021
itapora,BR,-22.0799,-54.7874,63.55,24,83,6.26,21-07-2021
novyy urengoy,RU,66.0833,76.6333,74.57,57,98,13.67,21-07-2021
jurmala,LV,56.968,23.7704,69.82,46,20,18.41,21-07-2021
kavieng,PG,-2.5744,150.7967,82.02,79,94,9.73,21-07-2021
kholodnyy,RU,62.7167,147.95,61.36,86,100,3.76,21-07-2021
san juan,AR,-31.5375,-68.5364,54.99,24,82,3.13,21-07-2021
liverpool,GB,53.4106,-2.9779,87.3,59,20,3.0,21-07-2021
dukat,RU,62.55,155.55,59.92,67,100,2.59,21-07-2021
nurlat,RU,54.4277,50.8051,82.65,35,7,10.11,21-07-2021
albany,US,42.6001,-73.9662,70.38,89,44,7.38,21-07-2021
central point,US,42.376,-122.9164,57.69,81,0,0.54,21-07-2021
chuy,UY,-33.6971,-53.4616,47.91,67,4,7.85,21-07-2021
cherskiy,RU,68.75,161.3,50.14,60,100,6.64,21-07-2021
jumla,NP,29.2747,82.1838,64.87,97,100,1.86,21-07-2021
mwanza,TZ,-2.5167,32.9,84.87,31,9,9.22,21-07-2021
flin flon,CA,54.7682,-101.865,64.58,60,99,5.01,21-07-2021
nantucket,US,41.2835,-70.0995,78.91,98,90,8.05,21-07-2021
bath,GB,51.3779,-2.3591,85.69,55,0,4.07,21-07-2021
qaanaaq,GL,77.484,-69.3632,36.45,99,100,12.26,21-07-2021
marovoay,MG,-16.1,46.6333,86.14,24,0,13.29,21-07-2021
aktash,RU,50.3,87.7333,60.19,62,15,4.65,21-07-2021
torbay,CA,47.6666,-52.7314,68.88,95,75,6.91,21-07-2021
palana,RU,59.1167,159.9667,50.5,79,100,23.58,21-07-2021
derzhavinsk,KZ,51.1,66.3167,83.97,30,3,2.71,21-07-2021
leningradskiy,RU,69.3833,178.4167,35.35,83,100,2.48,21-07-2021
lompoc,US,34.6391,-120.4579,63.1,90,90,5.75,21-07-2021
arraial do cabo,BR,-22.9661,-42.0278,65.37,68,100,3.69,21-07-2021
lucapa,AO,-8.4192,20.7447,90.88,14,5,5.21,21-07-2021
bathsheba,BB,13.2167,-59.5167,82.89,66,98,16.62,21-07-2021
galle,LK,6.0367,80.217,81.05,83,99,14.61,21-07-2021
kashi,CN,39.4547,75.9797,75.25,57,100,5.48,21-07-2021
yei,SS,4.095,30.6779,83.37,51,95,5.06,21-07-2021
saint-louis,SN,16.3333,-15.0,96.93,31,54,15.59,21-07-2021
banyliv,UA,48.3661,25.3455,60.55,95,100,12.59,21-07-2021
vangaindrano,MG,-23.35,47.6,72.59,73,40,9.57,21-07-2021
bubaque,GW,11.2833,-15.8333,81.19,80,100,9.1,21-07-2021
dongsheng,CN,39.8161,109.9776,73.6,57,100,15.66,21-07-2021
merrill,US,45.1805,-89.6835,58.77,90,1,0.0,21-07-2021
yola,NG,9.2,12.4833,90.03,52,100,7.07,21-07-2021
shimanovsk,RU,52.0,127.7,75.16,84,96,7.07,21-07-2021
tautira,PF,-17.7333,-149.15,77.02,80,54,18.63,21-07-2021
imeni poliny osipenko,RU,52.4201,136.4853,75.02,80,100,2.19,21-07-2021
jamestown,US,42.097,-79.2353,67.32,92,90,3.0,21-07-2021
tilichiki,RU,60.4667,166.1,51.31,86,87,5.35,21-07-2021
hecun,CN,36.5333,114.1111,72.07,99,100,3.09,21-07-2021
te anau,NZ,-45.4167,167.7167,44.15,96,100,2.75,21-07-2021
aklavik,CA,68.2191,-135.0107,69.89,49,6,3.85,21-07-2021
douglas,US,41.3,-96.167,71.98,92,1,1.01,21-07-2021
navirai,BR,-23.065,-54.1906,61.3,31,23,5.73,21-07-2021
albanel,CA,48.8832,-72.4487,62.85,56,7,8.66,21-07-2021
mattru,SL,7.6244,-11.8332,82.06,72,100,5.66,21-07-2021
nanchong,CN,30.7951,106.0847,82.47,76,2,2.57,21-07-2021
yarmouth,US,41.7057,-70.2286,78.91,80,1,3.44,21-07-2021
tema,GH,5.667,-0.0166,82.47,60,67,10.85,21-07-2021
charters towers,AU,-20.1,146.2667,56.66,37,7,9.66,21-07-2021
katsuura,JP,35.1333,140.3,82.11,88,9,5.91,21-07-2021
darnah,LY,32.767,22.6367,82.04,65,0,19.46,21-07-2021
souillac,MU,-20.5167,57.5167,68.36,76,82,20.67,21-07-2021
san francisco,US,37.7749,-122.4194,60.15,89,75,4.0,21-07-2021
depok,ID,-6.4,106.8186,84.18,72,40,3.44,21-07-2021
salalah,OM,17.0151,54.0924,79.77,86,78,13.35,21-07-2021
algiers,DZ,36.7525,3.042,89.42,40,20,10.36,21-07-2021
nelson bay,AU,-32.7167,152.15,52.0,61,100,16.51,21-07-2021
ereymentau,KZ,51.6199,73.1033,76.89,33,0,10.58,21-07-2021
awbari,LY,26.5921,12.7805,100.69,14,0,11.23,21-07-2021
upernavik,GL,72.7868,-56.1549,43.52,71,100,4.16,21-07-2021
cayenne,GF,4.9333,-52.3333,87.1,74,75,5.01,21-07-2021
sao mateus,BR,-18.7161,-39.8589,76.28,50,0,6.53,21-07-2021
yazman,PK,29.1212,71.7446,101.53,35,46,6.98,21-07-2021
chipata,ZM,-13.6333,32.65,82.92,22,3,2.28,21-07-2021
lhokseumawe,ID,5.1801,97.1507,81.28,80,100,2.33,21-07-2021
kiboga,UG,0.9161,31.7742,83.61,31,83,4.65,21-07-2021
griffith,US,41.5284,-87.4237,69.12,82,90,3.0,21-07-2021
atar,MR,20.5169,-13.0499,108.48,7,93,15.08,21-07-2021
rocha,UY,-34.4833,-54.3333,52.03,57,0,4.94,21-07-2021
kibre mengist,ET,5.8833,38.9833,66.54,63,100,3.36,21-07-2021
camacha,PT,33.0833,-16.3333,74.16,60,20,12.66,21-07-2021
libreville,GA,0.3925,9.4537,82.42,65,40,9.22,21-07-2021
buenos aires,AR,-34.6132,-58.3772,54.01,58,7,1.99,21-07-2021
ilulissat,GL,69.2167,-51.1,48.22,66,40,6.91,21-07-2021
bermejo,AR,-32.8833,-68.8,51.48,32,91,2.71,21-07-2021
ambulu,ID,-8.345,113.6058,74.64,87,16,4.47,21-07-2021
sakaiminato,JP,35.55,133.2333,79.12,89,72,6.76,21-07-2021
narsaq,GL,60.9167,-46.05,46.62,99,100,2.17,21-07-2021
usinsk,RU,65.9939,57.5281,67.86,41,52,3.42,21-07-2021
danilovka,RU,50.3557,44.1168,94.21,30,7,3.15,21-07-2021
villarrica,PY,-25.75,-56.4333,60.73,55,9,3.69,21-07-2021
ingham,US,42.6,-84.3833,65.55,82,90,8.05,21-07-2021
grand gaube,MU,-20.0064,57.6608,68.38,86,94,5.99,21-07-2021
hay river,CA,60.8156,-115.7999,58.33,77,100,5.75,21-07-2021
monywa,MM,22.1167,95.1333,86.94,66,100,13.51,21-07-2021
rikitea,PF,-23.1203,-134.9692,70.07,71,100,18.81,21-07-2021
sao felix do xingu,BR,-6.6447,-51.995,88.47,31,5,3.11,21-07-2021
belaya gora,RU,68.5333,146.4167,51.55,76,94,6.78,21-07-2021
yuancheng,CN,36.652,107.7896,73.81,71,100,11.27,21-07-2021
bredasdorp,ZA,-34.5322,20.0403,48.27,79,100,22.57,21-07-2021
karpogory,RU,64.0019,44.4451,63.23,30,77,12.41,21-07-2021
nefteyugansk,RU,61.0998,72.6035,79.05,59,86,13.42,21-07-2021
koungheul,SN,13.9833,-14.8,91.96,54,100,9.44,21-07-2021
amahai,ID,-3.3333,128.9167,77.16,89,100,3.4,21-07-2021
buala,SB,-8.145,159.5921,79.2,84,86,5.55,21-07-2021
bud,US,39.447,-86.1758,70.59,87,80,6.89,21-07-2021
fairbanks,US,64.8378,-147.7164,61.61,76,100,1.01,21-07-2021
la ronge,CA,55.1001,-105.2842,61.2,71,100,4.92,21-07-2021
zhigansk,RU,66.7697,123.3711,60.13,57,5,8.95,21-07-2021
kodiak,US,57.79,-152.4072,52.3,98,100,4.63,21-07-2021
sal rei,CV,16.1833,-22.9167,76.42,79,16,4.72,21-07-2021
caravelas,BR,-17.7125,-39.2481,74.66,60,100,8.79,21-07-2021
guerrero negro,MX,27.9769,-114.0611,68.38,90,100,12.71,21-07-2021
abha,SA,18.2164,42.5053,62.85,94,75,13.8,21-07-2021
bluff,NZ,-46.6,168.3333,43.81,89,100,9.01,21-07-2021
batagay-alyta,RU,67.8006,130.4114,58.89,68,100,3.44,21-07-2021
kavaratti,IN,10.5669,72.642,82.27,80,100,20.02,21-07-2021
cidreira,BR,-30.1811,-50.2056,54.48,57,0,9.53,21-07-2021
bilma,NE,18.6853,12.9164,107.17,14,100,3.76,21-07-2021
kununurra,AU,-15.7667,128.7333,64.38,59,5,1.14,21-07-2021
havelock,US,34.8791,-76.9013,79.95,91,90,1.99,21-07-2021
seoul,KR,37.5683,126.9778,85.39,70,0,2.3,21-07-2021
kibala,TD,9.1104,18.3463,91.02,46,50,4.63,21-07-2021
lagoa,PT,39.05,-27.9833,67.48,76,84,14.94,21-07-2021
aksarka,RU,66.5606,67.7975,67.05,45,100,6.55,21-07-2021
nashua,US,42.7654,-71.4676,75.07,88,75,1.01,21-07-2021
santa isabel do rio negro,BR,-0.4139,-65.0192,72.18,99,100,0.49,21-07-2021
gamboula,CF,4.1178,15.1393,84.52,55,98,2.35,21-07-2021
toyooka,JP,35.5333,134.8333,76.66,91,76,3.53,21-07-2021
hokitika,NZ,-42.7167,170.9667,51.64,91,100,15.26,21-07-2021
hithadhoo,MV,-0.6,73.0833,82.42,75,100,15.39,21-07-2021
clyde river,CA,70.4692,-68.5914,39.43,87,90,12.66,21-07-2021
tskaltubo,GE,42.3254,42.5979,90.54,62,75,16.11,21-07-2021
yellowknife,CA,62.456,-114.3525,62.29,82,66,5.99,21-07-2021
melfi,IT,40.9965,15.6514,91.49,23,0,11.05,21-07-2021
roma,US,43.2128,-75.4557,67.39,91,90,5.75,21-07-2021
hilton head island,US,32.2163,-80.7526,77.0,90,90,5.75,21-07-2021
nuuk,GL,64.1835,-51.7216,54.21,62,20,2.3,21-07-2021
norman wells,CA,65.282,-126.8329,63.28,63,84,4.79,21-07-2021
bathurst,AU,-33.4166,149.5806,34.84,94,0,2.35,21-07-2021
busselton,AU,-33.65,115.3333,51.08,81,88,9.17,21-07-2021
anito,PH,12.4497,125.2886,81.23,81,100,13.22,21-07-2021
north platte,US,41.1239,-100.7654,65.01,77,1,5.99,21-07-2021
puerto escondido,MX,15.85,-97.0667,79.63,75,91,4.18,21-07-2021
yatou,CN,37.15,122.3833,75.02,87,13,4.81,21-07-2021
cape town,ZA,-33.9258,18.4232,57.11,74,98,7.0,21-07-2021
nikolskoye,RU,59.7035,30.7861,67.89,41,89,5.88,21-07-2021
tuktoyaktuk,CA,69.4541,-133.0374,59.88,67,11,12.17,21-07-2021
channel-port aux basques,CA,47.5702,-59.1367,62.98,93,49,3.06,21-07-2021
la grande,US,45.3246,-118.0877,59.99,73,0,4.14,21-07-2021
zeya,RU,53.75,127.2667,71.96,90,100,2.73,21-07-2021
bilecik,TR,40.0,30.1667,84.88,53,98,15.93,21-07-2021
sonoita,MX,31.85,-112.8333,84.52,54,100,2.51,21-07-2021
maha sarakham,TH,16.3333,103.6667,79.16,80,100,10.42,21-07-2021
baglan,AF,36.1307,68.7083,99.79,11,27,11.21,21-07-2021
nagua,DO,19.3832,-69.8474,85.44,89,20,0.0,21-07-2021
manjacaze,MZ,-24.7117,33.8828,83.84,14,0,12.75,21-07-2021
yaan,NG,7.3833,8.5667,81.91,75,55,8.93,21-07-2021
winburg,ZA,-28.518,27.0093,53.65,13,0,14.43,21-07-2021
caxito,AO,-8.5785,13.6643,91.27,35,0,6.55,21-07-2021
illapel,CL,-31.6308,-71.1653,65.62,24,61,1.88,21-07-2021
vanimo,PG,-2.6741,141.3028,78.46,87,44,2.82,21-07-2021
esperance,AU,-33.8667,121.9,55.24,82,100,30.71,21-07-2021
pangnirtung,CA,66.1451,-65.7125,42.8,93,90,11.5,21-07-2021
port blair,IN,11.6667,92.75,82.11,83,100,23.04,21-07-2021
loucovice,CZ,48.6202,14.2575,76.98,47,35,3.18,21-07-2021
shanghai,CN,31.2222,121.4581,84.06,61,40,11.18,21-07-2021
teguldet,RU,57.3064,88.1667,68.04,67,83,2.51,21-07-2021
zhaotong,CN,27.3167,103.7167,64.2,87,37,4.85,21-07-2021
inhambane,MZ,-23.865,35.3833,80.92,45,11,7.74,21-07-2021
pinheiro machado,BR,-31.5783,-53.3811,47.05,77,0,5.3,21-07-2021
hualmay,PE,-11.0964,-77.6139,63.7,80,26,7.92,21-07-2021
codrington,AU,-38.2667,141.9667,44.98,92,100,9.22,21-07-2021
acapulco,MX,16.8634,-99.8901,79.18,86,99,3.91,21-07-2021
cozumel,MX,20.5083,-86.9458,81.0,90,0,1.99,21-07-2021
abu dhabi,AE,24.4667,54.3667,98.26,56,21,10.16,21-07-2021
kashan,IR,33.9831,51.4364,103.95,9,0,10.49,21-07-2021
ola,RU,59.5833,151.2833,52.65,95,100,5.66,21-07-2021
hennenman,ZA,-27.9765,27.0242,54.72,17,0,15.55,21-07-2021
kamenka,RU,51.3223,42.7678,90.14,37,95,5.61,21-07-2021
westport,US,41.1415,-73.3579,78.89,77,75,1.01,21-07-2021
vaini,TO,-21.2,-175.2,73.56,94,20,5.75,21-07-2021
yulara,AU,-25.2406,130.9889,60.64,36,0,5.75,21-07-2021
sorland,NO,67.667,12.6934,50.07,93,75,24.16,21-07-2021
tangshan,CN,39.6333,118.1833,75.36,89,100,2.93,21-07-2021
jabinyanah,TN,35.035,10.9081,85.44,46,0,13.42,21-07-2021
orlik,RU,52.5178,99.825,61.83,73,9,2.01,21-07-2021
yerofey pavlovich,RU,53.9667,121.9667,66.11,73,93,2.57,21-07-2021
graham,US,47.0529,-122.2943,57.7,89,90,0.0,21-07-2021
san patricio,US,28.017,-97.5169,82.26,82,95,5.5,21-07-2021
bambous virieux,MU,-20.3428,57.7575,68.22,73,86,22.84,21-07-2021
segou,ML,13.4317,-6.2157,97.43,36,2,11.16,21-07-2021
caudry,FR,50.1249,3.4119,82.17,45,0,6.91,21-07-2021
tocopilla,CL,-22.092,-70.1979,64.49,60,19,4.16,21-07-2021
atuona,PF,-9.8,-139.0333,77.43,69,100,20.83,21-07-2021
waingapu,ID,-9.6567,120.2641,74.79,77,23,5.97,21-07-2021
beloha,MG,-25.1667,45.05,84.69,32,0,4.43,21-07-2021
mazagao,BR,-0.115,-51.2894,87.85,67,7,4.72,21-07-2021
port macquarie,AU,-31.4333,152.9167,48.16,59,58,13.85,21-07-2021
sitka,US,57.0531,-135.33,55.29,88,90,3.44,21-07-2021
bar-le-duc,FR,48.75,5.1667,86.18,60,6,6.85,21-07-2021
dingle,PH,10.9995,122.6711,77.95,82,93,9.69,21-07-2021
ixtapa,MX,20.7,-105.2,79.23,88,92,3.4,21-07-2021
carnarvon,AU,-24.8667,113.6333,62.67,67,7,8.05,21-07-2021
alofi,NU,-19.0595,-169.9187,75.61,77,100,18.48,21-07-2021
yabrud,SY,33.9674,36.6574,87.46,7,0,10.74,21-07-2021
ahipara,NZ,-35.1667,173.1667,56.05,93,100,5.64,21-07-2021
sosva,RU,59.1766,61.8558,72.3,78,3,8.03,21-07-2021
chinsali,ZM,-10.5414,32.0816,83.05,21,4,5.91,21-07-2021
castro,BR,-24.7911,-50.0119,55.17,46,6,2.55,21-07-2021
tiksi,RU,71.6872,128.8694,38.37,94,76,3.62,21-07-2021
palmer,US,42.1584,-72.3287,73.51,74,90,5.75,21-07-2021
boulder city,US,35.9786,-114.8325,86.32,48,1,5.75,21-07-2021
pedasi,PA,7.5333,-80.0333,80.91,81,100,12.15,21-07-2021
itarema,BR,-2.9248,-39.9167,85.48,51,0,16.15,21-07-2021
hirara,JP,24.8,125.2833,82.54,88,100,52.9,21-07-2021
hermanus,ZA,-34.4187,19.2345,53.91,68,100,29.01,21-07-2021
stornoway,GB,58.2093,-6.3865,63.93,82,75,4.61,21-07-2021
mahebourg,MU,-20.4081,57.7,68.25,73,77,22.91,21-07-2021
kapaa,US,22.0752,-159.319,77.32,83,75,4.0,21-07-2021
kagadi,UG,0.9606,30.7967,81.18,44,58,4.41,21-07-2021
hambantota,LK,6.1241,81.1185,88.14,62,20,13.8,21-07-2021
progreso,MX,21.2833,-89.6667,77.52,88,12,7.87,21-07-2021
puerto suarez,BO,-18.95,-57.8,66.76,72,0,0.0,21-07-2021
ribeira grande,PT,38.5167,-28.7,73.8,60,40,13.8,21-07-2021
gazimurskiy zavod,RU,51.5461,118.3266,66.54,97,100,1.21,21-07-2021
marinette,US,45.1,-87.6307,64.85,82,1,4.61,21-07-2021
dikson,RU,73.5069,80.5464,52.83,56,8,16.44,21-07-2021
lipin bor,RU,60.2622,37.9763,65.89,39,24,12.62,21-07-2021
richards bay,ZA,-28.783,32.0377,67.6,64,15,13.78,21-07-2021
bhinmal,IN,25.0,72.25,91.72,56,10,17.65,21-07-2021
banda aceh,ID,5.5577,95.3222,81.39,78,100,15.12,21-07-2021
sosnovo-ozerskoye,RU,52.5249,111.5418,55.87,97,100,6.85,21-07-2021
geraldton,AU,-28.7667,114.6,64.13,82,40,8.05,21-07-2021
huilong,CN,31.8111,121.655,78.8,86,11,11.95,21-07-2021
lindi,TZ,-10.0,39.7167,78.76,76,15,8.66,21-07-2021
dekar,BW,-21.5333,21.9333,72.66,18,0,10.63,21-07-2021
yar-sale,RU,66.8333,70.8333,60.35,79,100,6.96,21-07-2021
klaksvik,FO,62.2266,-6.589,52.72,87,12,6.38,21-07-2021
urumqi,CN,43.801,87.6005,94.15,13,0,8.95,21-07-2021
lahaina,US,20.8783,-156.6825,76.75,74,100,7.58,21-07-2021
tabou,CI,4.423,-7.3528,79.36,68,100,6.98,21-07-2021
hasaki,JP,35.7333,140.8333,75.6,83,7,6.98,21-07-2021
qaqortoq,GL,60.7167,-46.0333,46.9,99,100,10.0,21-07-2021
dhulian,IN,24.6833,87.9667,85.62,79,100,7.61,21-07-2021
dwarka,IN,22.2394,68.9678,84.15,82,72,26.19,21-07-2021
nioro,GM,13.35,-15.75,90.95,54,85,7.31,21-07-2021
hofn,IS,64.2539,-15.2082,59.02,72,0,13.8,21-07-2021
krasnaya gorka,RU,55.1962,56.6673,80.2,56,25,6.31,21-07-2021
korla,CN,41.7597,86.1469,92.61,20,90,2.75,21-07-2021
husavik,IS,66.0449,-17.3389,61.81,61,27,5.39,21-07-2021
mozarlandia,BR,-14.7447,-50.5706,87.12,21,0,8.48,21-07-2021
bangassou,CF,4.7413,22.8184,82.42,59,100,1.97,21-07-2021
tutoia,BR,-2.7619,-42.2744,83.66,62,7,9.66,21-07-2021
sabzevar,IR,36.2126,57.6819,96.82,9,23,8.12,21-07-2021
half moon bay,US,37.4636,-122.4286,59.16,86,1,0.0,21-07-2021
pandan,PH,14.0453,124.1694,82.44,82,100,12.88,21-07-2021
mataura,NZ,-46.1927,168.8643,43.48,96,100,0.78,21-07-2021
beringovskiy,RU,63.05,179.3167,48.22,79,100,7.52,21-07-2021
ocosingo,MX,17.0667,-92.25,63.66,95,34,2.77,21-07-2021
naranjal,EC,-2.6667,-79.6167,73.53,79,54,1.54,21-07-2021
adre,TD,13.4667,22.2,88.47,42,95,11.97,21-07-2021
akureyri,IS,65.6835,-18.0878,69.94,41,49,9.15,21-07-2021
haines junction,CA,60.7522,-137.5108,48.02,91,88,3.62,21-07-2021
bodden town,KY,19.2833,-81.25,86.0,76,20,7.0,21-07-2021
adrar,MR,20.5022,-10.0711,104.92,5,65,21.39,21-07-2021
baykit,RU,61.67,96.37,62.01,75,98,0.92,21-07-2021
morgan city,US,29.6994,-91.2068,81.0,94,1,0.0,21-07-2021
isangel,VU,-19.55,169.2667,74.82,91,39,3.58,21-07-2021
victoria,HK,22.2855,114.1577,84.33,86,100,11.99,21-07-2021
chateaudun,FR,48.0833,1.3333,84.74,42,0,13.8,21-07-2021
morant bay,JM,17.8815,-76.4093,85.62,81,100,14.58,21-07-2021
gizo,SB,-8.103,156.8419,80.96,79,19,9.28,21-07-2021
genhe,CN,50.7833,121.5167,71.51,83,32,1.9,21-07-2021
vao,NC,-22.6667,167.4833,68.92,74,100,13.51,21-07-2021
georgetown,MY,5.4112,100.3354,86.9,67,20,6.91,21-07-2021
los llanos de aridane,ES,28.6585,-17.9182,73.15,79,20,14.97,21-07-2021
marquette,US,46.5333,-87.6335,63.61,82,88,3.0,21-07-2021
grindavik,IS,63.8424,-22.4338,54.55,82,40,14.97,21-07-2021
souris,CA,49.6172,-100.2612,71.74,76,100,9.48,21-07-2021
mocuba,MZ,-16.8392,36.9856,85.33,40,82,3.74,21-07-2021
amapa,BR,1.0,-52.0,81.09,74,15,3.96,21-07-2021
forbes,AU,-33.3833,148.0167,38.91,89,5,2.15,21-07-2021
nara,JP,34.6851,135.8049,84.9,94,13,2.55,21-07-2021
kargopol,RU,61.5071,38.9456,68.18,26,98,7.49,21-07-2021
riyadh,SA,24.6877,46.7219,109.42,16,73,7.54,21-07-2021
coihaique,CL,-45.5752,-72.0662,41.11,100,75,6.91,21-07-2021
lebanon,US,36.2081,-86.2911,75.96,91,1,0.0,21-07-2021
yerbogachen,RU,61.2767,108.0108,62.91,71,93,3.85,21-07-2021
loubomo,CG,-4.1997,12.6739,93.9,28,0,2.35,21-07-2021
callaway,US,30.153,-85.5699,84.13,87,20,1.99,21-07-2021
sur,OM,22.5667,59.5289,99.43,46,31,6.78,21-07-2021
nelson,NZ,-41.2833,173.2833,54.7,97,98,1.99,21-07-2021
pala,TD,9.3642,14.9046,89.53,48,100,4.99,21-07-2021
touros,BR,-5.1989,-35.4608,77.9,65,34,15.61,21-07-2021
caucaia,BR,-3.7361,-38.6531,85.06,42,20,17.27,21-07-2021
barrow,US,71.2906,-156.7887,35.62,93,90,20.71,21-07-2021
anloga,GH,5.7947,0.8973,80.1,69,82,14.18,21-07-2021
manali,IN,13.1667,80.2667,86.09,55,100,14.38,21-07-2021
vostok,RU,46.4856,135.8833,68.76,92,27,4.38,21-07-2021
luderitz,NA,-26.6481,15.1594,67.1,29,0,24.99,21-07-2021
asau,RO,46.4333,26.4,70.72,62,85,8.01,21-07-2021
ankazoabo,MG,-22.2833,44.5167,87.21,23,15,1.36,21-07-2021
nanortalik,GL,60.1432,-45.2371,46.42,96,100,12.12,21-07-2021
tahoua,NE,14.8888,5.2692,89.83,47,100,10.16,21-07-2021
birjand,IR,32.8663,59.2211,89.08,12,38,20.09,21-07-2021
novikovo,RU,51.1537,37.8879,69.33,86,100,13.11,21-07-2021
autazes,BR,-3.5797,-59.1306,84.06,65,25,1.48,21-07-2021
kohima,IN,25.6667,94.1167,69.75,97,92,3.27,21-07-2021
san pedro,PH,14.35,121.0167,77.36,94,100,14.16,21-07-2021
bagdarin,RU,54.4333,113.6,55.92,98,100,1.25,21-07-2021
emba,KZ,48.8264,58.1442,96.48,20,19,5.95,21-07-2021
santa cruz de tenerife,ES,28.4682,-16.2546,83.91,70,20,18.99,21-07-2021
bandarbeyla,SO,9.4942,50.8122,87.73,49,98,27.22,21-07-2021
manokwari,ID,-0.8667,134.0833,78.8,84,84,2.8,21-07-2021
urusha,RU,54.05,122.9,68.86,66,98,1.97,21-07-2021
fengzhen,CN,40.4394,113.1536,67.87,77,100,11.18,21-07-2021
rehoboth,NA,-23.3167,17.0833,62.17,30,0,7.78,21-07-2021
camopi,GF,3.1655,-52.3158,82.87,69,25,4.29,21-07-2021
xinzhou,CN,38.4092,112.7333,67.57,96,100,2.98,21-07-2021
sindor,RU,62.8629,51.8905,64.62,48,100,7.7,21-07-2021
tulum,MX,20.2167,-87.4667,80.98,75,3,7.99,21-07-2021
wad madani,SD,14.4012,33.5199,79.02,69,100,18.39,21-07-2021
oum hadjer,TD,13.2954,19.6966,92.08,42,100,10.67,21-07-2021
port elizabeth,ZA,-33.918,25.5701,65.1,31,4,18.86,21-07-2021
hukuntsi,BW,-24.0,21.75,61.14,22,0,12.37,21-07-2021
luwuk,ID,-0.9516,122.7875,76.12,92,100,5.84,21-07-2021
farafangana,MG,-22.8167,47.8333,73.15,69,12,11.07,21-07-2021
fort nelson,CA,58.8053,-122.7002,53.19,100,75,0.0,21-07-2021
airai,TL,-8.9266,125.4092,57.67,78,6,2.26,21-07-2021
alice springs,AU,-23.7,133.8833,58.55,44,31,8.05,21-07-2021
iqaluit,CA,63.7506,-68.5145,43.7,81,83,4.0,21-07-2021
plavsk,RU,53.7094,37.2919,62.42,92,100,4.41,21-07-2021
chapais,CA,49.7834,-74.8492,60.71,49,27,5.37,21-07-2021
sobolevo,RU,54.4299,31.8996,71.53,49,100,5.12,21-07-2021
thompson,CA,55.7435,-97.8558,65.97,48,100,4.61,21-07-2021
alta floresta,BR,-9.8756,-56.0861,82.62,29,0,4.97,21-07-2021
provideniya,RU,64.3833,-173.3,42.96,82,100,5.08,21-07-2021
vardo,NO,70.3705,31.1107,52.0,71,75,19.57,21-07-2021
flinders,AU,-34.5833,150.8552,48.2,77,1,3.0,21-07-2021
saint-philippe,RE,-21.3585,55.7679,76.55,83,12,14.7,21-07-2021
lebu,CL,-37.6167,-73.65,51.44,93,100,4.52,21-07-2021
nokaneng,BW,-19.6667,22.2667,79.09,14,0,7.2,21-07-2021
luena,AO,-11.7833,19.9167,83.64,14,0,6.71,21-07-2021
samarai,PG,-10.6167,150.6667,78.44,81,77,12.41,21-07-2021
pathein,MM,16.7833,94.7333,78.62,90,100,16.28,21-07-2021
asopos,GR,36.7333,22.8667,90.86,55,10,7.27,21-07-2021
olovyannaya,RU,50.95,115.5667,73.51,78,100,7.11,21-07-2021
hamilton,US,39.1834,-84.5333,72.41,88,1,1.99,21-07-2021
sao joao da barra,BR,-21.6403,-41.0511,71.69,65,100,2.66,21-07-2021
ushuaia,AR,-54.8,-68.3,28.06,69,20,6.91,21-07-2021
nome,US,64.5011,-165.4064,46.47,93,90,14.97,21-07-2021
alugan,PH,12.2188,125.4808,82.54,74,100,14.38,21-07-2021
saint-joseph,RE,-21.3667,55.6167,75.56,78,24,14.16,21-07-2021
axim,GH,4.8699,-2.2405,80.28,63,82,7.81,21-07-2021
yeppoon,AU,-23.1333,150.7333,55.18,45,0,11.34,21-07-2021
yanam,IN,16.7333,82.2167,81.0,94,100,10.0,21-07-2021
palembang,ID,-2.9167,104.7458,76.44,89,19,4.63,21-07-2021
tasiilaq,GL,65.6145,-37.6368,44.76,91,94,1.48,21-07-2021
san juan de uraba,CO,8.7592,-76.5297,81.25,88,100,3.49,21-07-2021
ambilobe,MG,-13.2,49.05,86.45,30,18,13.31,21-07-2021
rincon,US,32.296,-81.2354,77.45,89,90,5.75,21-07-2021
el cope,PA,8.6167,-80.6,75.85,81,61,4.41,21-07-2021
lavrentiya,RU,65.5833,-171.0,41.07,90,100,5.21,21-07-2021
ballina,AU,-28.8667,153.5667,45.79,68,30,12.97,21-07-2021
vestmannaeyjar,IS,63.4427,-20.2734,54.59,94,75,13.8,21-07-2021
birao,CF,10.2849,22.7882,87.94,51,100,7.4,21-07-2021
athabasca,CA,54.7169,-113.2854,55.98,77,60,4.38,21-07-2021
avera,US,33.194,-82.5271,75.07,90,100,6.82,21-07-2021
guarapari,BR,-20.6667,-40.4975,73.29,61,5,2.86,21-07-2021
otane,NZ,-39.8833,176.6333,55.0,87,100,6.78,21-07-2021
hobart,AU,-42.8794,147.3294,49.91,75,75,5.99,21-07-2021
tateyama,JP,34.9833,139.8667,82.02,85,14,5.39,21-07-2021
ahome,MX,25.9167,-109.1833,76.14,92,100,3.13,21-07-2021
new norfolk,AU,-42.7826,147.0587,49.57,72,91,3.0,21-07-2021
hvide sande,DK,56.0045,8.1294,66.78,77,75,10.36,21-07-2021
namibe,AO,-15.1961,12.1522,74.53,61,3,14.07,21-07-2021
sangar,RU,63.9242,127.4739,60.93,69,34,8.99,21-07-2021
bella union,UY,-30.2752,-57.6007,50.95,60,0,5.75,21-07-2021
shar,KZ,49.5886,81.0453,84.61,35,4,7.4,21-07-2021
ati,TD,13.2154,18.3353,95.18,37,99,12.46,21-07-2021
kenai,US,60.5544,-151.2583,55.02,98,90,4.61,21-07-2021
raga,SS,8.4596,25.678,72.05,89,100,7.25,21-07-2021
coahuayana,MX,18.7333,-103.6833,75.09,85,99,4.83,21-07-2021
tubod,PH,8.0555,123.7904,77.36,91,96,3.09,21-07-2021
grafton,US,42.207,-71.6856,75.81,78,20,1.01,21-07-2021
okha,RU,53.5739,142.9478,63.93,82,83,15.05,21-07-2021
puerto ayora,EC,-0.7393,-90.3518,72.55,92,100,7.0,21-07-2021
oranjemund,NA,-28.55,16.4333,58.08,48,0,17.56,21-07-2021
harper,LR,4.375,-7.7169,79.84,67,99,7.02,21-07-2021
fortuna,US,40.5982,-124.1573,55.33,73,90,1.99,21-07-2021
wanning,CN,18.8003,110.3967,81.3,87,100,1.97,21-07-2021
port alfred,ZA,-33.5906,26.891,63.95,27,0,27.49,21-07-2021
alihe,CN,50.5667,123.7167,73.11,95,55,2.95,21-07-2021
pevek,RU,69.7008,170.3133,39.88,64,10,3.2,21-07-2021
jizan,SA,17.3333,42.6667,83.34,81,100,6.08,21-07-2021
kamenskiy,RU,50.8855,45.488,90.95,36,22,4.52,21-07-2021
sao filipe,CV,14.8961,-24.4956,77.14,81,13,4.65,21-07-2021
faranah,GN,10.0404,-10.7434,79.92,73,100,6.22,21-07-2021
byron bay,AU,-28.65,153.6167,50.88,68,49,13.67,21-07-2021
banjar,ID,-8.19,114.9675,80.46,81,97,5.14,21-07-2021
cap malheureux,MU,-19.9842,57.6142,68.47,86,91,8.99,21-07-2021
sorong,ID,-0.8833,131.25,79.43,85,100,7.65,21-07-2021
komsomolskiy,UZ,40.4272,71.7189,90.32,29,7,6.91,21-07-2021
berdigestyakh,RU,62.0989,126.6992,59.14,92,100,5.61,21-07-2021
rock sound,BS,24.9,-76.2,82.62,77,47,14.97,21-07-2021
shelburne,CA,44.0787,-80.2041,63.05,84,0,12.03,21-07-2021
shakhtinsk,KZ,49.71,72.5872,77.56,37,0,16.55,21-07-2021
itarantim,BR,-15.6597,-40.0656,71.24,68,100,8.46,21-07-2021
kaka,TM,37.3482,59.6143,104.76,9,1,10.45,21-07-2021
hilo,US,19.7297,-155.09,72.81,86,90,0.0,21-07-2021
vila franca do campo,PT,37.7167,-25.4333,72.01,68,26,9.91,21-07-2021
alta,NO,69.9689,23.2717,52.86,58,40,11.5,21-07-2021
ponta do sol,PT,32.6667,-17.1,79.72,63,0,1.1,21-07-2021
nueva guinea,NI,11.6876,-84.4562,74.95,94,76,10.09,21-07-2021
kizilskoye,RU,52.7255,58.8937,85.14,37,97,5.08,21-07-2021
matagami,CA,49.7502,-77.6328,57.04,55,2,5.75,21-07-2021
maltahohe,NA,-24.8333,16.9833,57.09,28,0,5.64,21-07-2021
petropavlovsk-kamchatskiy,RU,53.0452,158.6483,54.01,94,27,2.55,21-07-2021
ruteng,ID,-8.6136,120.4721,63.07,94,75,1.3,21-07-2021
pemangkat,ID,1.1667,108.9667,81.57,83,100,12.48,21-07-2021
dudinka,RU,69.4058,86.1778,67.82,41,1,5.12,21-07-2021
margate,GB,51.3813,1.3862,84.18,76,4,9.28,21-07-2021
maningrida,AU,-12.0667,134.2667,67.77,62,10,8.84,21-07-2021
maarianhamina,AX,60.0973,19.9348,62.46,51,20,10.36,21-07-2021
noyabrsk,RU,63.1994,75.4507,74.8,49,100,14.9,21-07-2021
baghdad,IQ,33.3406,44.4009,118.31,14,0,18.41,21-07-2021
guasdualito,VE,7.2424,-70.7324,73.15,96,100,3.98,21-07-2021
gutierrez zamora,MX,20.45,-97.0833,76.75,90,69,3.18,21-07-2021
port hedland,AU,-20.3167,118.5667,71.65,94,31,10.36,21-07-2021
saldanha,ZA,-33.0117,17.9442,55.85,71,78,25.39,21-07-2021
cam ranh,VN,11.9214,109.1591,87.76,58,75,10.36,21-07-2021
hanna,CA,51.6334,-111.9018,58.87,97,2,3.58,21-07-2021
novovasylivka,UA,46.8315,35.7536,94.91,35,7,11.97,21-07-2021
tecoanapa,MX,16.5167,-98.75,77.83,88,27,2.77,21-07-2021
meulaboh,ID,4.1363,96.1285,78.71,84,100,3.8,21-07-2021
kaitangata,NZ,-46.2817,169.8464,49.93,84,100,2.89,21-07-2021
rantauprapat,ID,2.1,99.8333,78.31,81,100,1.99,21-07-2021
pyapon,MM,16.2833,95.6833,79.68,86,100,16.33,21-07-2021
santa cruz,BO,-17.8,-63.1667,63.86,31,40,9.22,21-07-2021
atambua,ID,-9.1061,124.8925,70.81,83,11,3.76,21-07-2021
limanowa,PL,49.7059,20.422,74.88,52,59,9.15,21-07-2021
kruisfontein,ZA,-34.0033,24.7314,62.89,28,82,20.27,21-07-2021
maracacume,BR,-2.0428,-45.9592,80.98,81,65,5.97,21-07-2021
odweyne,SO,9.4092,45.064,81.03,39,99,29.97,21-07-2021
marsa matruh,EG,31.3525,27.2453,84.49,61,0,14.72,21-07-2021
malindi,KE,-3.2175,40.1191,80.29,70,14,17.18,21-07-2021
lorengau,PG,-2.0226,147.2712,81.88,72,100,3.0,21-07-2021
cockburn town,TC,21.4612,-71.1419,81.57,78,44,19.06,21-07-2021
chatra,IN,24.2167,84.8667,78.78,79,100,3.27,21-07-2021
whitehorse,CA,60.7161,-135.0538,53.31,71,12,10.0,21-07-2021
coquimbo,CL,-29.9533,-71.3436,47.93,93,90,4.61,21-07-2021
makasar,ID,-5.14,119.4221,77.05,94,40,2.3,21-07-2021
tura,IN,25.5198,90.2201,79.14,91,100,1.79,21-07-2021
tabas,IR,33.5959,56.9244,102.6,7,0,13.85,21-07-2021
baker city,US,44.7749,-117.8344,60.93,62,1,5.75,21-07-2021
muisne,EC,0.6,-80.0333,77.11,86,100,8.46,21-07-2021
santa maria,BR,-29.6842,-53.8069,51.64,52,0,1.59,21-07-2021
launceston,AU,-41.45,147.1667,45.16,92,60,4.0,21-07-2021
port keats,AU,-14.25,129.55,70.72,54,7,1.1,21-07-2021
cabanas,CU,22.9758,-82.9219,84.67,78,10,3.91,21-07-2021
severo-kurilsk,RU,50.6789,156.125,51.55,93,30,5.03,21-07-2021
srednekolymsk,RU,67.45,153.6833,54.28,83,8,4.12,21-07-2021
port said,EG,31.2565,32.2841,82.62,67,1,13.33,21-07-2021
mount isa,AU,-20.7333,139.5,58.77,38,100,6.91,21-07-2021
saskylakh,RU,71.9167,114.0833,61.0,57,100,17.98,21-07-2021
kulhudhuffushi,MV,6.6221,73.07,83.14,77,100,16.42,21-07-2021
bengkulu,ID,-3.8004,102.2655,79.12,83,100,1.05,21-07-2021
hobyo,SO,5.3505,48.5268,81.52,70,48,31.74,21-07-2021
lazaro cardenas,MX,17.9583,-102.2,77.68,86,33,5.32,21-07-2021
ust-tsilma,RU,65.441,52.1498,59.81,84,31,10.27,21-07-2021
kahului,US,20.8947,-156.47,76.26,92,40,16.11,21-07-2021
bosaso,SO,11.2842,49.1816,90.77,50,100,4.65,21-07-2021
konstantinovo,BY,54.6628,29.2699,72.68,46,37,13.8,21-07-2021
port lincoln,AU,-34.7333,135.8667,52.23,59,100,19.8,21-07-2021
kastamonu,TR,41.5,33.6667,76.96,56,99,13.44,21-07-2021
saint george,US,37.1041,-113.5841,84.34,52,1,3.0,21-07-2021
avarua,CK,-21.2078,-159.775,75.25,94,40,9.22,21-07-2021
santa helena de goias,BR,-17.8136,-50.5969,72.82,13,0,6.76,21-07-2021
kijang,KR,35.2442,129.2139,77.5,86,100,10.96,21-07-2021
celestun,MX,20.8667,-90.4,77.97,86,5,9.37,21-07-2021
sergeyevka,KZ,53.88,67.4158,81.37,43,15,7.18,21-07-2021
ancud,CL,-41.8697,-73.8203,49.53,95,100,6.76,21-07-2021
la solana,ES,38.9442,-3.2381,95.5,13,0,2.73,21-07-2021
boyolangu,ID,-8.1181,111.8935,74.3,89,41,5.12,21-07-2021
constitucion,CL,-35.3333,-72.4167,54.52,77,100,2.86,21-07-2021
bethel,US,41.3712,-73.414,75.51,81,75,1.01,21-07-2021
talnakh,RU,69.4865,88.3972,65.55,41,8,4.05,21-07-2021
acari,PE,-15.4311,-74.6158,69.21,57,26,2.57,21-07-2021
golden,US,39.7555,-105.2211,75.76,57,75,0.0,21-07-2021
butaritari,KI,3.0707,172.7902,81.64,78,60,10.0,21-07-2021
marmora,IT,44.4583,7.094,77.07,59,100,3.65,21-07-2021
tuatapere,NZ,-46.1333,167.6833,43.83,95,100,5.32,21-07-2021
balingasay,PH,16.3573,119.8564,78.12,90,100,7.36,21-07-2021
tenenkou,ML,14.4572,-4.9169,98.76,33,14,13.82,21-07-2021
culiacan,MX,24.7994,-107.3897,76.64,86,65,2.62,21-07-2021
punta arenas,CL,-53.15,-70.9167,35.71,93,75,3.44,21-07-2021
cururupu,BR,-1.8283,-44.8683,84.2,67,74,7.74,21-07-2021
vila velha,BR,-20.3297,-40.2925,73.35,60,20,3.44,21-07-2021
hun,LY,29.1268,15.9477,94.91,23,0,10.51,21-07-2021
bowen,AU,-20.0167,148.2333,62.37,57,8,5.75,21-07-2021
mnogovershinnyy,RU,53.9353,139.9242,68.13,91,100,5.88,21-07-2021
abhar,IR,36.1468,49.218,95.97,14,58,7.14,21-07-2021
bestobe,KZ,52.4994,73.0975,79.65,30,0,9.57,21-07-2021
gat,IL,31.61,34.7642,90.39,42,0,15.41,21-07-2021
longyearbyen,SJ,78.2186,15.6401,44.44,65,75,16.11,21-07-2021
taoudenni,ML,22.6783,-3.9836,118.67,5,73,12.3,21-07-2021
tadine,NC,-21.55,167.8833,69.73,88,9,3.51,21-07-2021
portland,US,45.5234,-122.6762,56.21,87,1,0.0,21-07-2021
angoche,MZ,-16.2325,39.9086,79.09,66,2,9.17,21-07-2021
jieshi,CN,22.8134,115.8257,84.94,84,100,8.5,21-07-2021
berlevag,NO,70.8578,29.0864,46.35,76,75,24.16,21-07-2021
bohodukhiv,UA,50.1647,35.5276,78.84,68,100,10.54,21-07-2021
kalabo,ZM,-14.97,22.6814,82.74,14,0,8.25,21-07-2021
itoman,JP,26.1247,127.6694,82.42,89,75,27.63,21-07-2021
sinnamary,GF,5.3833,-52.95,82.67,75,28,7.92,21-07-2021
east london,ZA,-33.0153,27.9116,66.74,21,0,17.52,21-07-2021
andenes,NO,69.3143,16.1194,52.07,87,75,21.85,21-07-2021
hwange,ZW,-18.3693,26.5019,80.55,16,5,4.25,21-07-2021
whyalla,AU,-33.0333,137.5833,49.89,53,90,6.91,21-07-2021
murgab,TM,37.4966,61.9714,105.67,14,75,13.8,21-07-2021
saint simons,US,31.1352,-81.3901,78.84,91,40,6.91,21-07-2021
eyl,SO,7.9803,49.8164,89.26,47,100,25.23,21-07-2021
